{
    "Магазин №051": {
        "code": 101,
        "active": 1,
        "address": {
            "country": "RU",
            "lat": 48.808236,
            "lon": 44.752277,
            "region": "Волгоградская обл",
            "city": "Волжский",
            "postalcode": "404130",
            "street": "Коммунистическая ул",
            "housenumber": "2"
        }
    },
    "Магазин №052": {
        "code": 102,
        "active": 1,
        "address": {
            "country": "RU",
            "lat": 48.777501,
            "lon": 44.798216,
            "region": "Волгоградская обл",
            "city": "Волжский",
            "postalcode": "404130",
            "street": "Мира ул",
            "housenumber": "33"
        }
    },
    "Магазин №053": {
        "code": 103,
        "active": 1,
        "address": {
            "country": "RU",
            "lat": 48.514861,
            "lon": 44.549014,
            "region": "Волгоградская обл",
            "city": "Волгоград",
            "postalcode": "400113",
            "street": "им Героев Сталинграда пр-кт",
            "housenumber": "27"
        }
    },
    "Магазин №054": {
        "code": 104,
        "active": 1,
        "address": {
            "country": "RU",
            "lat": 48.694833,
            "lon": 45.197829,
            "region": "Волгоградская обл",
            "city": "Ленинск",
            "postalcode": "404620",
            "street": "Им Ленина ул",
            "housenumber": "217В"
        }
    },
    "Магазин №055": {
        "code": 105,
        "active": 1,
        "address": {
            "country": "RU",
            "lat": 48.820207,
            "lon": 44.630439,
            "region": "Волгоградская обл",
            "city": "Волгоград",
            "postalcode": "400033",
            "street": "им Николая Отрады ул",
            "housenumber": "13"
        }
    },
    "Магазин №058": {
        "code": 108,
        "active": 0,
        "address": {
            "country": "RU",
            "lat": 48.505714,
            "lon": 44.565758,
            "region": "Волгоградская обл",
            "city": "Волгоград",
            "postalcode": "400096",
            "street": "им Столетова пр-кт",
            "housenumber": "50"
        }
    },
    "Магазин №059": {
        "code": 109,
        "active": 1,
        "address": {
            "country": "RU",
            "lat": 48.77188,
            "lon": 44.553309,
            "region": "Волгоградская обл",
            "city": "Волгоград",
            "postalcode": "400007",
            "street": "Богунская ул",
            "housenumber": "11"
        }
    },
    "Магазин №060": {
        "code": 110,
        "active": 1,
        "address": {
            "country": "RU",
            "lat": 48.616779,
            "lon": 44.429328,
            "region": "Волгоградская обл",
            "city": "Волгоград",
            "postalcode": "400079",
            "street": "им Кирова ул",
            "housenumber": "145"
        }
    },
    "Магазин №061": {
        "code": 111,
        "active": 0,
        "address": {
            "country": "RU",
            "lat": 48.759052,
            "lon": 44.822978,
            "region": "Волгоградская обл",
            "city": "Волжский",
            "postalcode": "404118",
            "street": "87-й Гвардейской ул",
            "housenumber": "85а"
        }
    },
    "Магазин №062": {
        "code": 112,
        "active": 1,
        "address": {
            "country": "RU",
            "lat": 48.516677,
            "lon": 44.558044,
            "region": "Волгоградская обл",
            "city": "Волгоград",
            "postalcode": "400055",
            "street": "им Героев Сталинграда пр-кт",
            "housenumber": "17"
        }
    },
    "Магазин №064": {
        "code": 114,
        "active": 1,
        "address": {
            "country": "RU",
            "lat": 48.686993,
            "lon": 44.320023,
            "region": "Волгоградская обл",
            "city": "Волгоград",
            "postalcode": "400038",
            "street": "Волгоградская",
            "housenumber": "7"
        }
    },
    "Магазин №066": {
        "code": 116,
        "active": 1,
        "address": {
            "country": "RU",
            "lat": 48.521375,
            "lon": 44.602939,
            "region": "Волгоградская обл",
            "city": "Волгоград",
            "postalcode": "400063",
            "street": "им композитора Танеева ул",
            "housenumber": "10"
        }
    },
    "Магазин №067": {
        "code": 117,
        "active": 1,
        "address": {
            "country": "RU",
            "lat": 48.798232,
            "lon": 44.601187,
            "region": "Волгоградская обл",
            "city": "Волгоград",
            "postalcode": "400006",
            "street": "Ленина пр-кт",
            "housenumber": "209"
        }
    },
    "Магазин №068": {
        "code": 118,
        "active": 1,
        "address": {
            "country": "RU",
            "lat": 48.778272,
            "lon": 44.548853,
            "region": "Волгоградская обл",
            "city": "Волгоград",
            "postalcode": "400040",
            "street": "им генерала Штеменко ул",
            "housenumber": "57"
        }
    },
    "Магазин №069": {
        "code": 119,
        "active": 0,
        "address": {
            "country": "RU",
            "lat": 48.732432,
            "lon": 44.541142,
            "region": "Волгоградская обл",
            "city": "Волгоград г",
            "postalcode": "400005",
            "street": "им Глазкова ул",
            "housenumber": "8"
        }
    },
    "Магазин №070": {
        "code": 120,
        "active": 1,
        "address": {
            "country": "RU",
            "lat": 48.791284,
            "lon": 44.577544,
            "region": "Волгоградская обл",
            "city": "Волгоград",
            "postalcode": "400065",
            "street": "Тарифная ул",
            "housenumber": "25"
        }
    },
    "Магазин №071": {
        "code": 121,
        "active": 1,
        "address": {
            "country": "RU",
            "lat": 48.607221,
            "lon": 44.428612,
            "region": "Волгоградская обл",
            "city": "Волгоград",
            "postalcode": "400067",
            "street": "им Кирова ул",
            "housenumber": "113А"
        }
    },
    "Магазин №072": {
        "code": 122,
        "active": 1,
        "address": {
            "country": "RU",
            "lat": 48.701809,
            "lon": 44.483243,
            "region": "Волгоградская обл",
            "city": "Волгоград",
            "postalcode": "400120",
            "street": "Елецкая ул",
            "housenumber": "11А"
        }
    },
    "Магазин №073": {
        "code": 123,
        "active": 0,
        "address": {
            "country": "RU",
            "lat": 48.515765,
            "lon": 44.580973,
            "region": "Волгоградская обл",
            "city": "Волгоград",
            "postalcode": "400080",
            "street": "им Столетова пр-кт",
            "housenumber": "4А"
        }
    },
    "Магазин №075": {
        "code": 125,
        "active": 1,
        "address": {
            "country": "RU",
            "lat": 48.705965,
            "lon": 44.858275,
            "region": "Волгоградская обл",
            "city": "Средняя Ахтуба рп",
            "postalcode": "404143",
            "street": "Ленина ул",
            "housenumber": "42"
        }
    },
    "Магазин №076": {
        "code": 126,
        "active": 1,
        "address": {
            "country": "RU",
            "lat": 48.777222,
            "lon": 44.555096,
            "region": "Волгоградская обл",
            "city": "Волгоград",
            "postalcode": "400105",
            "street": "им маршала Еременко ул",
            "housenumber": "100"
        }
    },
    "Магазин №077": {
        "code": 127,
        "active": 1,
        "address": {
            "country": "RU",
            "lat": 48.814533,
            "lon": 44.620755,
            "region": "Волгоградская обл",
            "city": "Волгоград",
            "postalcode": "400121",
            "street": "им Кропоткина ул",
            "housenumber": "3А"
        }
    },
    "Магазин №079": {
        "code": 128,
        "active": 1,
        "address": {
            "country": "RU",
            "lat": 48.798775,
            "lon": 44.743777,
            "region": "Волгоградская обл",
            "city": "Волжский",
            "postalcode": "404130",
            "street": "им Ленина пр-кт",
            "housenumber": "42"
        }
    },
    "Магазин №078": {
        "code": 129,
        "active": 1,
        "address": {
            "country": "RU",
            "lat": 48.718514,
            "lon": 44.530501,
            "region": "Волгоградская обл",
            "city": "Волгоград",
            "postalcode": "400005",
            "street": "Ленина пр-кт",
            "housenumber": "33"
        }
    },
    "Магазин №090": {
        "code": 131,
        "active": 1,
        "address": {
            "country": "RU",
            "lat": 48.765641,
            "lon": 44.558943,
            "region": "Волгоградская обл",
            "city": "Волгоград",
            "postalcode": "400007",
            "street": "Металлургов пр-кт",
            "housenumber": "1"
        }
    },
    "Магазин №080": {
        "code": 132,
        "active": 1,
        "address": {
            "country": "RU",
            "lat": 48.696471,
            "lon": 44.478766,
            "region": "Волгоградская обл",
            "city": "Волгоград",
            "postalcode": "400120",
            "street": "им Елисеева ул",
            "housenumber": "13"
        }
    },
    "Магазин №081": {
        "code": 133,
        "active": 1,
        "address": {
            "country": "RU",
            "lat": 48.760868,
            "lon": 44.538201,
            "region": "Волгоградская обл",
            "city": "Волгоград",
            "postalcode": "400064",
            "street": "им Рихарда Зорге ул",
            "housenumber": "46а"
        }
    },
    "Магазин №082": {
        "code": 134,
        "active": 1,
        "address": {
            "country": "RU",
            "lat": 48.65483,
            "lon": 44.435289,
            "region": "Волгоградская обл",
            "city": "Волгоград",
            "postalcode": "400062",
            "street": "Университетский пр-кт",
            "housenumber": "70"
        }
    },
    "Магазин №083": {
        "code": 135,
        "active": 1,
        "address": {
            "country": "RU",
            "lat": 48.592693,
            "lon": 44.421604,
            "region": "Волгоградская обл",
            "city": "Волгоград",
            "postalcode": "400021",
            "street": "Колосовая ул",
            "housenumber": "4"
        }
    },
    "Магазин №084": {
        "code": 136,
        "active": 1,
        "address": {
            "country": "RU",
            "lat": 48.516879,
            "lon": 44.535482,
            "region": "Волгоградская обл",
            "city": "Волгоград",
            "postalcode": "400112",
            "street": "Пролетарская ул",
            "housenumber": "45Д"
        }
    },
    "Магазин №085": {
        "code": 137,
        "active": 0,
        "address": {
            "country": "RU",
            "lat": 48.723477,
            "lon": 44.523183,
            "region": "Волгоградская обл",
            "city": "Волгоград",
            "postalcode": "400050",
            "street": "им Пархоменко ул",
            "housenumber": "59Б"
        }
    },
    "Магазин №086": {
        "code": 138,
        "active": 1,
        "address": {
            "country": "RU",
            "lat": 48.799598,
            "lon": 44.593685,
            "region": "Волгоградская обл",
            "city": "Волгоград",
            "postalcode": "400015",
            "street": "Ополченская ул",
            "housenumber": "22"
        }
    },
    "Магазин №087": {
        "code": 139,
        "active": 0,
        "address": {
            "country": "RU",
            "lat": 48.767464,
            "lon": 44.804268,
            "region": "Волгоградская обл",
            "city": "Волжский",
            "postalcode": "404130",
            "street": "Мира ул",
            "housenumber": "70а"
        }
    },
    "Магазин №092": {
        "code": 142,
        "active": 0,
        "address": {
            "country": "RU",
            "lat": 48.769547,
            "lon": 44.806872,
            "region": "Волгоградская обл",
            "city": "Волжский",
            "postalcode": "404130",
            "street": "Мира ул",
            "housenumber": "75"
        }
    },
    "Магазин №093": {
        "code": 143,
        "active": 0,
        "address": {
            "country": "RU",
            "lat": 48.737514,
            "lon": 44.486887,
            "region": "Волгоградская обл",
            "city": "Волгоград г",
            "postalcode": "400107",
            "street": "Рионская",
            "housenumber": "9а"
        }
    },
    "Магазин №095": {
        "code": 145,
        "active": 1,
        "address": {
            "country": "RU",
            "lat": 48.756164,
            "lon": 44.493378,
            "region": "Волгоградская обл",
            "city": "Волгоград",
            "postalcode": "400117",
            "street": "30-летия Победы б-р",
            "housenumber": "90"
        }
    },
    "Магазин №097": {
        "code": 147,
        "active": 1,
        "address": {
            "country": "RU",
            "lat": 48.755456,
            "lon": 44.510814,
            "region": "Волгоградская обл",
            "city": "Волгоград",
            "postalcode": "400137",
            "street": "Космонавтов ул",
            "housenumber": "33А"
        }
    },
    "Магазин №098": {
        "code": 148,
        "active": 1,
        "address": {
            "country": "RU",
            "lat": 48.715782,
            "lon": 44.482423,
            "region": "Волгоградская обл",
            "city": "Волгоград",
            "postalcode": "400081",
            "street": "Нильская ул",
            "housenumber": "3"
        }
    },
    "Магазин №099": {
        "code": 149,
        "active": 1,
        "address": {
            "country": "RU",
            "lat": 48.718095,
            "lon": 44.46817,
            "region": "Волгоградская обл",
            "city": "Волгоград",
            "postalcode": "400081",
            "street": "им Твардовского ул",
            "housenumber": "8"
        }
    },
    "Магазин №100": {
        "code": 151,
        "active": 1,
        "address": {
            "country": "RU",
            "lat": 48.679147,
            "lon": 44.449995,
            "region": "Волгоградская обл",
            "city": "Волгоград",
            "postalcode": "400002",
            "street": "им Сухова ул",
            "housenumber": "15"
        }
    },
    "Магазин №101": {
        "code": 152,
        "active": 1,
        "address": {
            "country": "RU",
            "lat": 48.521947,
            "lon": 44.573695,
            "region": "Волгоградская обл",
            "city": "Волгоград",
            "postalcode": "400055",
            "street": "Канатчиков пр-кт",
            "housenumber": "2"
        }
    },
    "Магазин №102": {
        "code": 154,
        "active": 1,
        "address": {
            "country": "RU",
            "lat": 48.664613,
            "lon": 44.440617,
            "region": "Волгоградская обл",
            "city": "Волгоград",
            "postalcode": "400002",
            "street": "Университетский пр-кт",
            "housenumber": "51"
        }
    },
    "Магазин №103": {
        "code": 155,
        "active": 1,
        "address": {
            "country": "RU",
            "lat": 48.773119,
            "lon": 44.791589,
            "region": "Волгоградская обл",
            "city": "Волжский",
            "postalcode": "404127",
            "street": "Дружбы ул",
            "housenumber": "35"
        }
    },
    "Магазин №104": {
        "code": 156,
        "active": 1,
        "address": {
            "country": "RU",
            "lat": 48.760085,
            "lon": 44.505017,
            "region": "Волгоградская обл",
            "city": "Волгоград",
            "postalcode": "400117",
            "street": "им Землячки ул",
            "housenumber": "68А"
        }
    },
    "Магазин №105": {
        "code": 157,
        "active": 1,
        "address": {
            "country": "RU",
            "lat": 48.71894,
            "lon": 44.515241,
            "region": "Волгоградская обл",
            "city": "Волгоград",
            "postalcode": "400087",
            "street": "Двинская ул",
            "housenumber": "7А"
        }
    },
    "Магазин №106": {
        "code": 158,
        "active": 1,
        "address": {
            "country": "RU",
            "lat": 48.735019,
            "lon": 44.496749,
            "region": "Волгоградская обл",
            "city": "Волгоград",
            "postalcode": "400010",
            "street": "Качинцев ул",
            "housenumber": "95"
        }
    },
    "Магазин №108": {
        "code": 160,
        "active": 1,
        "address": {
            "country": "RU",
            "lat": 48.737706,
            "lon": 44.491604,
            "region": "Волгоградская обл",
            "city": "Волгоград",
            "postalcode": "400107",
            "street": "им Маршала Советского Союза Г.К.Жукова пр-кт",
            "housenumber": "91"
        }
    },
    "Магазин №109": {
        "code": 161,
        "active": 1,
        "address": {
            "country": "RU",
            "lat": 48.764012,
            "lon": 44.811343,
            "region": "Волгоградская обл",
            "city": "Волжский",
            "postalcode": "404132",
            "street": "Мира ул",
            "housenumber": "88"
        }
    },
    "Магазин №110": {
        "code": 162,
        "active": 1,
        "address": {
            "country": "RU",
            "lat": 48.751437,
            "lon": 44.826831,
            "region": "Волгоградская обл",
            "city": "Волжский",
            "postalcode": "404118",
            "street": "Мира ул",
            "housenumber": "143"
        }
    },
    "Магазин №111": {
        "code": 163,
        "active": 1,
        "address": {
            "country": "RU",
            "lat": 48.766377,
            "lon": 44.811224,
            "region": "Волгоградская обл",
            "city": "Волжский",
            "postalcode": "404109",
            "street": "Оломоуцкая ул",
            "housenumber": "46"
        }
    },
    "Магазин №112": {
        "code": 164,
        "active": 1,
        "address": {
            "country": "RU",
            "lat": 48.786568,
            "lon": 44.559643,
            "region": "Волгоградская обл",
            "city": "Волгоград",
            "postalcode": "400123",
            "street": "им Германа Титова ул",
            "housenumber": "60"
        }
    },
    "Магазин №113": {
        "code": 165,
        "active": 1,
        "address": {
            "country": "RU",
            "lat": 50.08861,
            "lon": 45.361991,
            "region": "Волгоградская обл",
            "city": "Камышин",
            "postalcode": "403876",
            "street": "5-й мкр",
            "housenumber": "31б"
        }
    },
    "Магазин №114": {
        "code": 166,
        "active": 1,
        "address": {
            "country": "RU",
            "lat": 50.089445,
            "lon": 45.377744,
            "region": "Волгоградская обл",
            "city": "Камышин",
            "postalcode": "403892",
            "street": "Базарова ул",
            "housenumber": "150"
        }
    },
    "Магазин №115": {
        "code": 167,
        "active": 1,
        "address": {
            "country": "RU",
            "lat": 50.090654,
            "lon": 45.423228,
            "region": "Волгоградская обл",
            "city": "Камышин",
            "postalcode": "403886",
            "street": "6-й мкр",
            "housenumber": "8а"
        }
    },
    "Магазин №116": {
        "code": 168,
        "active": 1,
        "address": {
            "country": "RU",
            "lat": 48.768616,
            "lon": 44.496868,
            "region": "Волгоградская обл",
            "city": "Волгоград",
            "postalcode": "400094",
            "street": "51-й Гвардейской ул",
            "housenumber": "49"
        }
    },
    "Магазин №117": {
        "code": 169,
        "active": 1,
        "address": {
            "country": "RU",
            "lat": 48.81653,
            "lon": 44.628486,
            "region": "Волгоградская обл",
            "city": "Волгоград",
            "postalcode": "400121",
            "street": "им Николая Отрады ул",
            "housenumber": "20г"
        }
    },
    "Магазин №119": {
        "code": 171,
        "active": 1,
        "address": {
            "country": "RU",
            "lat": 48.602345,
            "lon": 44.422176,
            "region": "Волгоградская обл",
            "city": "Волгоград",
            "postalcode": "400059",
            "street": "64-й Армии ул",
            "housenumber": "8"
        }
    },
    "Магазин №120": {
        "code": 172,
        "active": 1,
        "address": {
            "country": "RU",
            "lat": 50.106101,
            "lon": 45.425025,
            "region": "Волгоградская обл",
            "city": "Камышин",
            "postalcode": "403874",
            "street": "Королева ул",
            "housenumber": "12"
        }
    },
    "Магазин №121": {
        "code": 173,
        "active": 1,
        "address": {
            "country": "RU",
            "lat": 48.76811,
            "lon": 44.487681,
            "region": "Волгоградская обл",
            "city": "Волгоград",
            "postalcode": "400075",
            "street": "51-й Гвардейской ул",
            "housenumber": "29"
        }
    },
    "Магазин №122": {
        "code": 174,
        "active": 1,
        "address": {
            "country": "RU",
            "lat": 48.844691,
            "lon": 44.554514,
            "region": "Волгоградская обл",
            "city": "Волгоград",
            "postalcode": "400058",
            "street": "Костюченко ул",
            "housenumber": "7"
        }
    },
    "Магазин №123": {
        "code": 175,
        "active": 0,
        "address": {
            "country": "RU",
            "lat": 48.476279,
            "lon": 44.775192,
            "region": "Волгоградская обл",
            "city": "Светлый Яр рп",
            "postalcode": "404171",
            "street": "1-й мкр",
            "housenumber": "12"
        }
    },
    "Магазин №126": {
        "code": 178,
        "active": 1,
        "address": {
            "country": "RU",
            "lat": 49.767312,
            "lon": 43.643845,
            "region": "Волгоградская обл",
            "city": "Фролово",
            "postalcode": "403538",
            "street": "Фроловская ул",
            "housenumber": "14/1"
        }
    },
    "Магазин №129": {
        "code": 181,
        "active": 1,
        "address": {
            "country": "RU",
            "lat": 49.060108,
            "lon": 44.821455,
            "region": "Волгоградская обл",
            "city": "Дубовка",
            "postalcode": "404002",
            "street": "Московская ул",
            "housenumber": "59а"
        }
    },
    "Магазин №130": {
        "code": 182,
        "active": 1,
        "address": {
            "country": "RU",
            "lat": 48.784453,
            "lon": 44.573733,
            "region": "Волгоградская обл",
            "city": "Волгоград",
            "postalcode": "400009",
            "street": "им Пельше ул",
            "housenumber": "9"
        }
    },
    "Магазин №131": {
        "code": 183,
        "active": 1,
        "address": {
            "country": "RU",
            "lat": 50.528219,
            "lon": 42.669015,
            "region": "Волгоградская обл",
            "city": "Новоаннинский",
            "postalcode": "403958",
            "street": "Советская ул",
            "housenumber": "96А"
        }
    },
    "Магазин №132": {
        "code": 184,
        "active": 1,
        "address": {
            "country": "RU",
            "lat": 48.61182,
            "lon": 42.859844,
            "region": "Волгоградская обл",
            "city": "Суровикино",
            "postalcode": "404414",
            "street": "1-й мкр",
            "housenumber": "57"
        }
    },
    "Магазин №133": {
        "code": 185,
        "active": 0,
        "address": {
            "country": "RU",
            "lat": 50.975021,
            "lon": 44.793079,
            "region": "Волгоградская обл",
            "city": "Жирновск",
            "postalcode": "403792",
            "street": "35 лет Победы ул",
            "housenumber": "3А"
        }
    },
    "Магазин №134": {
        "code": 186,
        "active": 0,
        "address": {
            "country": "RU",
            "lat": 48.697678,
            "lon": 44.49354,
            "region": "Волгоградская обл",
            "city": "Волгоград",
            "postalcode": "400074",
            "street": "Академическая ул",
            "housenumber": "11"
        }
    },
    "Магазин №136": {
        "code": 188,
        "active": 1,
        "address": {
            "country": "RU",
            "lat": 50.32705,
            "lon": 44.789205,
            "region": "Волгоградская обл",
            "city": "Котово",
            "postalcode": "403805",
            "street": "Победы ул",
            "housenumber": "33а"
        }
    },
    "Магазин №139": {
        "code": 191,
        "active": 1,
        "address": {
            "country": "RU",
            "lat": 49.581892,
            "lon": 42.729714,
            "region": "Волгоградская обл",
            "city": "Серафимович",
            "postalcode": "403441",
            "street": "Октябрьская ул",
            "housenumber": "96"
        }
    },
    "Магазин №140": {
        "code": 192,
        "active": 1,
        "address": {
            "country": "RU",
            "lat": 48.606844,
            "lon": 42.822341,
            "region": "Волгоградская обл",
            "city": "Суровикино",
            "postalcode": "404411",
            "street": "Ленина ул",
            "housenumber": "1А"
        }
    },
    "Магазин №141": {
        "code": 193,
        "active": 1,
        "address": {
            "country": "RU",
            "lat": 48.422492,
            "lon": 42.225177,
            "region": "Волгоградская обл",
            "city": "Чернышковский рп",
            "postalcode": "404462",
            "street": "Советская ул",
            "housenumber": "96"
        }
    },
    "Магазин №142": {
        "code": 194,
        "active": 1,
        "address": {
            "country": "RU",
            "lat": 50.143964,
            "lon": 45.206385,
            "region": "Волгоградская обл",
            "city": "Петров Вал",
            "postalcode": "403840",
            "street": "Ленина ул",
            "housenumber": "82"
        }
    },
    "Магазин №143": {
        "code": 195,
        "active": 0,
        "address": {
            "country": "RU",
            "lat": 48.770343,
            "lon": 44.813745,
            "region": "Волгоградская обл",
            "city": "Волжский",
            "postalcode": "404131",
            "street": "Оломоуцкая ул",
            "housenumber": "45а"
        }
    },
    "Магазин №144": {
        "code": 196,
        "active": 1,
        "address": {
            "country": "RU",
            "lat": 48.758169,
            "lon": 44.796707,
            "region": "Волгоградская обл",
            "city": "Волжский",
            "postalcode": "404133",
            "street": "им генерала Карбышева ул",
            "housenumber": "138б"
        }
    },
    "Магазин №145": {
        "code": 197,
        "active": 0,
        "address": {
            "country": "RU",
            "lat": 50.887431,
            "lon": 44.825638,
            "region": "Волгоградская обл",
            "city": "Линево рп",
            "postalcode": "403770",
            "street": "Ленина ул",
            "housenumber": "1"
        }
    },
    "Магазин №146": {
        "code": 198,
        "active": 1,
        "address": {
            "country": "RU",
            "lat": 48.781946,
            "lon": 44.785612,
            "region": "Волгоградская обл",
            "city": "Волжский",
            "postalcode": "404104",
            "street": "Мира ул",
            "housenumber": "7б"
        }
    },
    "Магазин №147": {
        "code": 199,
        "active": 1,
        "address": {
            "country": "RU",
            "lat": 48.618301,
            "lon": 44.056107,
            "region": "Волгоградская обл",
            "city": "Береславка п",
            "postalcode": "404547",
            "street": "",
            "housenumber": "17Д"
        }
    },
    "Магазин №148": {
        "code": 200,
        "active": 1,
        "address": {
            "country": "RU",
            "lat": 48.759071,
            "lon": 44.490876,
            "region": "Волгоградская обл",
            "city": "Волгоград",
            "postalcode": "400117",
            "street": "Шекснинская ул",
            "housenumber": "18А"
        }
    },
    "Магазин №149": {
        "code": 201,
        "active": 1,
        "address": {
            "country": "RU",
            "lat": 50.794005,
            "lon": 44.558555,
            "region": "Волгоградская обл",
            "city": "Рудня рп",
            "postalcode": "403601",
            "street": "Красная ул",
            "housenumber": "1А"
        }
    },
    "Магазин №150": {
        "code": 202,
        "active": 1,
        "address": {
            "country": "RU",
            "lat": 50.352287,
            "lon": 44.121485,
            "region": "Волгоградская обл",
            "city": "Даниловка рп",
            "postalcode": "403371",
            "street": "Ленинская ул",
            "housenumber": "20"
        }
    },
    "Магазин №151": {
        "code": 203,
        "active": 1,
        "address": {
            "country": "RU",
            "lat": 48.70748,
            "lon": 44.591689,
            "region": "Волгоградская обл",
            "city": "Краснослободск",
            "postalcode": "404160",
            "street": "Ленина ул",
            "housenumber": "183а"
        }
    },
    "Магазин №152": {
        "code": 204,
        "active": 1,
        "address": {
            "country": "RU",
            "lat": 48.518399,
            "lon": 44.546231,
            "region": "Волгоградская обл",
            "city": "Волгоград",
            "postalcode": "400112",
            "street": "им Энгельса б-р",
            "housenumber": "9"
        }
    },
    "Магазин №153": {
        "code": 205,
        "active": 1,
        "address": {
            "country": "RU",
            "lat": 50.797932,
            "lon": 42.009324,
            "region": "Волгоградская обл",
            "city": "Урюпинск",
            "postalcode": "403113",
            "street": "Ленина пр-кт",
            "housenumber": "66"
        }
    },
    "Магазин №154": {
        "code": 206,
        "active": 1,
        "address": {
            "country": "RU",
            "lat": 50.974172,
            "lon": 42.36734,
            "region": "Волгоградская обл",
            "city": "Новониколаевский рп",
            "postalcode": "403901",
            "street": "Народная ул",
            "housenumber": "134"
        }
    },
    "Магазин №155": {
        "code": 207,
        "active": 0,
        "address": {
            "country": "RU",
            "lat": 48.517245,
            "lon": 44.560794,
            "region": "Волгоградская обл",
            "city": "Волгоград",
            "postalcode": "400055",
            "street": "им Героев Сталинграда пр-кт",
            "housenumber": "7"
        }
    },
    "Магазин №156": {
        "code": 208,
        "active": 1,
        "address": {
            "country": "RU",
            "lat": 49.316618,
            "lon": 43.057103,
            "region": "Волгоградская обл",
            "city": "Клетская ст-ца",
            "postalcode": "403562",
            "street": "Покальчука ул",
            "housenumber": "15"
        }
    },
    "Магазин №157": {
        "code": 209,
        "active": 0,
        "address": {
            "country": "RU",
            "lat": 48.520309,
            "lon": 44.588448,
            "region": "Волгоградская обл",
            "city": "Волгоград",
            "postalcode": "400029",
            "street": "Гремячинская ул",
            "housenumber": "18"
        }
    },
    "Магазин №158": {
        "code": 210,
        "active": 1,
        "address": {
            "country": "RU",
            "lat": 48.576699,
            "lon": 44.439314,
            "region": "Волгоградская обл",
            "city": "Волгоград",
            "postalcode": "400057",
            "street": "им генерала Шумилова ул",
            "housenumber": "14"
        }
    },
    "Магазин №159": {
        "code": 211,
        "active": 0,
        "address": {
            "country": "RU",
            "lat": 48.713724,
            "lon": 44.86124,
            "region": "Волгоградская обл",
            "city": "Средняя Ахтуба рп",
            "postalcode": "404143",
            "street": "Октябрьская ул",
            "housenumber": "80а"
        }
    },
    "Магазин №160": {
        "code": 212,
        "active": 1,
        "address": {
            "country": "RU",
            "lat": 48.782899,
            "lon": 44.765323,
            "region": "Волгоградская обл",
            "city": "Волжский",
            "postalcode": "404120",
            "street": "им генерала Карбышева ул",
            "housenumber": "64"
        }
    },
    "Магазин №161": {
        "code": 213,
        "active": 1,
        "address": {
            "country": "RU",
            "lat": 50.052657,
            "lon": 46.879652,
            "region": "Волгоградская обл",
            "city": "Палласовка",
            "postalcode": "404264",
            "street": "Ленина ул",
            "housenumber": "20а"
        }
    },
    "Магазин №162": {
        "code": 214,
        "active": 1,
        "address": {
            "country": "RU",
            "lat": 49.765457,
            "lon": 45.386701,
            "region": "Волгоградская обл",
            "city": "Быково рп",
            "postalcode": "404060",
            "street": "Куйбышева ул",
            "housenumber": "18"
        }
    },
    "Магазин №163": {
        "code": 215,
        "active": 0,
        "address": {
            "country": "RU",
            "lat": 49.851638,
            "lon": 44.561548,
            "region": "Волгоградская обл",
            "city": "Ольховка с",
            "postalcode": "403651",
            "street": "Комсомольская ул",
            "housenumber": "22б"
        }
    },
    "Магазин №164": {
        "code": 216,
        "active": 1,
        "address": {
            "country": "RU",
            "lat": 49.771214,
            "lon": 43.65447,
            "region": "Волгоградская обл",
            "city": "Фролово",
            "postalcode": "403533",
            "street": "Орджоникидзе ул",
            "housenumber": "5"
        }
    },
    "Магазин №165": {
        "code": 217,
        "active": 1,
        "address": {
            "country": "RU",
            "lat": 50.943402,
            "lon": 43.741152,
            "region": "Волгоградская обл",
            "city": "Елань рп",
            "postalcode": "403732",
            "street": "Ленинская ул",
            "housenumber": "105"
        }
    },
    "Магазин №166": {
        "code": 218,
        "active": 1,
        "address": {
            "country": "RU",
            "lat": 48.778237,
            "lon": 44.803672,
            "region": "Волгоградская обл",
            "city": "Волжский",
            "postalcode": "404126",
            "street": "Александрова ул",
            "housenumber": "31А"
        }
    },
    "Магазин №168": {
        "code": 220,
        "active": 1,
        "address": {
            "country": "RU",
            "lat": 48.671751,
            "lon": 44.448486,
            "region": "Волгоградская обл",
            "city": "Волгоград",
            "postalcode": "400002",
            "street": "Запорожская ул",
            "housenumber": "2"
        }
    },
    "Магазин №169": {
        "code": 221,
        "active": 0,
        "address": {
            "country": "RU",
            "lat": 50.977912,
            "lon": 44.77473,
            "region": "Волгоградская обл",
            "city": "Жирновск г",
            "postalcode": "403791",
            "street": "Ломоносова",
            "housenumber": "48"
        }
    },
    "Магазин №170": {
        "code": 222,
        "active": 1,
        "address": {
            "country": "RU",
            "lat": 48.713357,
            "lon": 45.183209,
            "region": "Волгоградская обл",
            "city": "Ленинск",
            "postalcode": "404621",
            "street": "мкр. ПМК-40 мкр",
            "housenumber": "2"
        }
    },
    "Магазин №171": {
        "code": 223,
        "active": 1,
        "address": {
            "country": "RU",
            "lat": 50.408714,
            "lon": 41.748323,
            "region": "Волгоградская обл",
            "city": "Нехаевская ст-ца",
            "postalcode": "403171",
            "street": "Ленина ул",
            "housenumber": "52"
        }
    },
    "Магазин №172": {
        "code": 224,
        "active": 1,
        "address": {
            "country": "RU",
            "lat": 48.789664,
            "lon": 44.769613,
            "region": "Волгоградская обл",
            "city": "Волжский",
            "postalcode": "404121",
            "street": "Машиностроителей ул",
            "housenumber": "1в"
        }
    },
    "Магазин №173": {
        "code": 225,
        "active": 1,
        "address": {
            "country": "RU",
            "lat": 48.771047,
            "lon": 44.785793,
            "region": "Волгоградская обл",
            "city": "Волжский",
            "postalcode": "404127",
            "street": "им генерала Карбышева ул",
            "housenumber": "91д"
        }
    },
    "Магазин №174": {
        "code": 226,
        "active": 0,
        "address": {
            "country": "RU",
            "lat": 48.782536,
            "lon": 44.567252,
            "region": "Волгоградская обл",
            "city": "Волгоград г",
            "postalcode": "400123",
            "street": "Титова",
            "housenumber": "11"
        }
    },
    "Магазин №175": {
        "code": 227,
        "active": 1,
        "address": {
            "country": "RU",
            "lat": 50.097394,
            "lon": 45.421782,
            "region": "Волгоградская обл",
            "city": "Камышин",
            "postalcode": "403877",
            "street": "Некрасова ул",
            "housenumber": "19а"
        }
    },
    "Магазин №176": {
        "code": 228,
        "active": 1,
        "address": {
            "country": "RU",
            "lat": 50.073647,
            "lon": 45.396215,
            "region": "Волгоградская обл",
            "city": "Камышин",
            "postalcode": "403889",
            "street": "Волгоградская ул",
            "housenumber": "1помещение98"
        }
    },
    "Магазин №177": {
        "code": 229,
        "active": 1,
        "address": {
            "country": "RU",
            "lat": 50.101076,
            "lon": 45.426241,
            "region": "Волгоградская обл",
            "city": "Камышин",
            "postalcode": "403874",
            "street": "Ленина ул",
            "housenumber": "23пом.112"
        }
    },
    "Магазин №178": {
        "code": 230,
        "active": 0,
        "address": {
            "country": "RU",
            "lat": 50.075511,
            "lon": 45.399151,
            "region": "Волгоградская обл",
            "city": "Камышин г",
            "postalcode": "403873",
            "street": "Пролетарская ул",
            "housenumber": "105помещ57"
        }
    },
    "Магазин №179": {
        "code": 231,
        "active": 0,
        "address": {
            "country": "RU",
            "lat": 48.512212,
            "lon": 44.545873,
            "region": "Волгоградская обл",
            "city": "Волгоград",
            "postalcode": "400026",
            "street": "им Героев Сталинграда пр-кт",
            "housenumber": "44а"
        }
    },
    "Магазин №181": {
        "code": 233,
        "active": 0,
        "address": {
            "country": "RU",
            "lat": 50.074258,
            "lon": 43.237494,
            "region": "Волгоградская обл",
            "city": "Михайловка",
            "postalcode": "403348",
            "street": "Мира ул",
            "housenumber": "79В"
        }
    },
    "Магазин №182": {
        "code": 234,
        "active": 1,
        "address": {
            "country": "RU",
            "lat": 47.968844,
            "lon": 43.635365,
            "region": "Волгоградская обл",
            "city": "Октябрьский рп",
            "postalcode": "404321",
            "street": "Круглякова ул",
            "housenumber": "164а"
        }
    },
    "Магазин №183": {
        "code": 235,
        "active": 1,
        "address": {
            "country": "RU",
            "lat": 50.091714,
            "lon": 45.38497,
            "region": "Волгоградская обл",
            "city": "Камышин",
            "postalcode": "403892",
            "street": "Металлургов ул",
            "housenumber": "17пом59"
        }
    },
    "Магазин №184": {
        "code": 236,
        "active": 1,
        "address": {
            "country": "RU",
            "lat": 48.360585,
            "lon": 43.087016,
            "region": "Волгоградская обл",
            "city": "Нижний Чир ст-ца",
            "postalcode": "404446",
            "street": "Ленина ул",
            "housenumber": "17"
        }
    },
    "Магазин №185": {
        "code": 237,
        "active": 1,
        "address": {
            "country": "RU",
            "lat": 50.289814,
            "lon": 42.185655,
            "region": "Волгоградская обл",
            "city": "Алексеевская ст-ца",
            "postalcode": "403241",
            "street": "Советский пер",
            "housenumber": "15"
        }
    },
    "Магазин №186": {
        "code": 238,
        "active": 1,
        "address": {
            "country": "RU",
            "lat": 50.80791,
            "lon": 44.555131,
            "region": "Волгоградская обл",
            "city": "Рудня рп",
            "postalcode": "403601",
            "street": "Пионерская ул",
            "housenumber": "93"
        }
    },
    "Магазин №187": {
        "code": 239,
        "active": 1,
        "address": {
            "country": "RU",
            "lat": 48.897973,
            "lon": 44.775769,
            "region": "Волгоградская обл",
            "city": "Волжский",
            "postalcode": "404124",
            "street": "им Панфилова ул",
            "housenumber": "4Б"
        }
    },
    "Магазин №188": {
        "code": 240,
        "active": 1,
        "address": {
            "country": "RU",
            "lat": 48.712652,
            "lon": 44.858481,
            "region": "Волгоградская обл",
            "city": "Средняя Ахтуба рп",
            "postalcode": "404143",
            "street": "Октябрьская ул",
            "housenumber": "75Б"
        }
    },
    "Магазин №189": {
        "code": 241,
        "active": 1,
        "address": {
            "country": "RU",
            "lat": 48.783259,
            "lon": 44.754188,
            "region": "Волгоградская обл",
            "city": "Волжский",
            "postalcode": "404120",
            "street": "им Ленина пр-кт",
            "housenumber": "97"
        }
    },
    "Магазин №190": {
        "code": 242,
        "active": 1,
        "address": {
            "country": "RU",
            "lat": 48.79034,
            "lon": 44.772564,
            "region": "Волгоградская обл",
            "city": "Волжский",
            "postalcode": "404121",
            "street": "Энгельса ул",
            "housenumber": "30"
        }
    },
    "Магазин №191": {
        "code": 243,
        "active": 1,
        "address": {
            "country": "RU",
            "lat": 48.79311,
            "lon": 44.585571,
            "region": "Волгоградская обл",
            "city": "Волгоград",
            "postalcode": "400065",
            "street": "Ополченская ул",
            "housenumber": "49"
        }
    },
    "Магазин №192": {
        "code": 244,
        "active": 1,
        "address": {
            "country": "RU",
            "lat": 49.765898,
            "lon": 45.388076,
            "region": "Волгоградская обл",
            "city": "Быково рп",
            "postalcode": "404061",
            "street": "Ленина ул",
            "housenumber": "8Б"
        }
    },
    "Магазин №193": {
        "code": 245,
        "active": 1,
        "address": {
            "country": "RU",
            "lat": 50.040036,
            "lon": 46.89374,
            "region": "Волгоградская обл",
            "city": "Палласовка",
            "postalcode": "404263",
            "street": "Мира ул",
            "housenumber": "22дблок3секция12помещение1-Н"
        }
    },
    "Магазин №194": {
        "code": 246,
        "active": 1,
        "address": {
            "country": "RU",
            "lat": 50.083681,
            "lon": 45.407403,
            "region": "Волгоградская обл",
            "city": "Камышин",
            "postalcode": "403871",
            "street": "4-й мкр",
            "housenumber": "65"
        }
    },
    "Магазин №195": {
        "code": 248,
        "active": 1,
        "address": {
            "country": "RU",
            "lat": 48.799402,
            "lon": 44.693417,
            "region": "Волгоградская обл",
            "city": "Волжский",
            "postalcode": "404113",
            "street": "Гидростроевская ул",
            "housenumber": "16а"
        }
    },
    "Магазин №196": {
        "code": 249,
        "active": 1,
        "address": {
            "country": "RU",
            "lat": 48.539017,
            "lon": 42.502314,
            "region": "Ростовская обл",
            "city": "Обливская ст-ца",
            "postalcode": "347140",
            "street": "Кирова ул",
            "housenumber": "441"
        }
    },
    "Магазин №197": {
        "code": 250,
        "active": 1,
        "address": {
            "country": "RU",
            "lat": 50.476823,
            "lon": 46.482043,
            "region": "Волгоградская обл",
            "city": "Старая Полтавка с",
            "postalcode": "404211",
            "street": "Ленина ул",
            "housenumber": "12Б"
        }
    },
    "Магазин №198": {
        "code": 251,
        "active": 0,
        "address": {
            "country": "RU",
            "lat": 46.338619,
            "lon": 48.073034,
            "region": "Астраханская обл",
            "city": "Астрахань",
            "postalcode": "414022",
            "street": "Звездная ул",
            "housenumber": "53Влит.А"
        }
    },
    "Магазин №199": {
        "code": 252,
        "active": 1,
        "address": {
            "country": "RU",
            "lat": 46.345264,
            "lon": 48.067091,
            "region": "Астраханская обл",
            "city": "Астрахань",
            "postalcode": "414004",
            "street": "Студенческая ул",
            "housenumber": "4бЛитерБпомещение1"
        }
    },
    "Магазин №200": {
        "code": 253,
        "active": 1,
        "address": {
            "country": "RU",
            "lat": 48.47017,
            "lon": 44.785496,
            "region": "Волгоградская обл",
            "city": "Светлый Яр рп",
            "postalcode": "404171",
            "street": "2-й мкр",
            "housenumber": "6а"
        }
    },
    "Магазин №201": {
        "code": 254,
        "active": 1,
        "address": {
            "country": "RU",
            "lat": 46.348763,
            "lon": 48.080188,
            "region": "Астраханская обл",
            "city": "Астрахань",
            "postalcode": "414004",
            "street": "Софьи Перовской ул",
            "housenumber": "111ЛитерАпомещение89"
        }
    },
    "Магазин №202": {
        "code": 255,
        "active": 0,
        "address": {
            "country": "RU",
            "lat": 46.368718,
            "lon": 48.049301,
            "region": "Астраханская обл",
            "city": "Астрахань",
            "postalcode": "414056",
            "street": "Савушкина ул",
            "housenumber": "251"
        }
    },
    "Магазин №203": {
        "code": 256,
        "active": 1,
        "address": {
            "country": "RU",
            "lat": 47.247201,
            "lon": 47.023246,
            "region": "Астраханская обл",
            "city": "Енотаевка с",
            "postalcode": "416200",
            "street": "Днепровская ул",
            "housenumber": "6Д"
        }
    },
    "Магазин №204": {
        "code": 257,
        "active": 1,
        "address": {
            "country": "RU",
            "lat": 47.117784,
            "lon": 43.903409,
            "region": "Ростовская обл",
            "city": "Заветное с",
            "postalcode": "347430",
            "street": "Ломоносова ул",
            "housenumber": "34"
        }
    },
    "Магазин №205": {
        "code": 258,
        "active": 1,
        "address": {
            "country": "RU",
            "lat": 48.600953,
            "lon": 44.421287,
            "region": "Волгоградская обл",
            "city": "Волгоград",
            "postalcode": "400059",
            "street": "64-й Армии ул",
            "housenumber": "61Б"
        }
    },
    "Магазин №206": {
        "code": 259,
        "active": 1,
        "address": {
            "country": "RU",
            "lat": 49.311442,
            "lon": 43.990327,
            "region": "Волгоградская обл",
            "city": "Иловля рп",
            "postalcode": "403071",
            "street": "Объездная ул",
            "housenumber": "2А"
        }
    },
    "Магазин №207": {
        "code": 260,
        "active": 1,
        "address": {
            "country": "RU",
            "lat": 48.564926,
            "lon": 44.428617,
            "region": "Волгоградская обл",
            "city": "Волгоград",
            "postalcode": "400020",
            "street": "им Саши Чекалина ул",
            "housenumber": "50"
        }
    },
    "Магазин №208": {
        "code": 261,
        "active": 1,
        "address": {
            "country": "RU",
            "lat": 48.756724,
            "lon": 44.552003,
            "region": "Волгоградская обл",
            "city": "Волгоград",
            "postalcode": "400078",
            "street": "им В.И.Ленина пр-кт",
            "housenumber": "77"
        }
    },
    "Магазин №209": {
        "code": 262,
        "active": 1,
        "address": {
            "country": "RU",
            "lat": 47.953146,
            "lon": 44.677762,
            "region": "Калмыкия респ",
            "city": "Малые Дербеты с",
            "postalcode": "359420",
            "street": "Советская ул",
            "housenumber": "29"
        }
    },
    "Магазин №210": {
        "code": 263,
        "active": 1,
        "address": {
            "country": "RU",
            "lat": 46.35247,
            "lon": 48.038634,
            "region": "Астраханская обл",
            "city": "Астрахань",
            "postalcode": "414000",
            "street": "Свердлова/Кирова/Эспланадная None",
            "housenumber": "26-28/7/17-19ЛитерА"
        }
    },
    "Магазин №211": {
        "code": 264,
        "active": 1,
        "address": {
            "country": "RU",
            "lat": 48.296697,
            "lon": 40.923306,
            "region": "Ростовская обл",
            "city": "Горняцкий п",
            "postalcode": "347026",
            "street": "Чапаева ул",
            "housenumber": "5"
        }
    },
    "Магазин №212": {
        "code": 265,
        "active": 0,
        "address": {
            "country": "RU",
            "lat": 48.177139,
            "lon": 40.813325,
            "region": "Ростовская обл",
            "city": "Белая Калитва",
            "postalcode": "347042",
            "street": "Светлая ул",
            "housenumber": "9А"
        }
    },
    "Магазин №213": {
        "code": 266,
        "active": 1,
        "address": {
            "country": "RU",
            "lat": 47.781016,
            "lon": 44.519139,
            "region": "Калмыкия респ",
            "city": "Садовое с",
            "postalcode": "359410",
            "street": "Ленина ул",
            "housenumber": "82"
        }
    },
    "Магазин №214": {
        "code": 267,
        "active": 0,
        "address": {
            "country": "RU",
            "lat": 45.334249,
            "lon": 42.838543,
            "region": "Ставропольский край",
            "city": "Светлоград",
            "postalcode": "356530",
            "street": "Николаенко ул",
            "housenumber": "42"
        }
    },
    "Магазин №215": {
        "code": 268,
        "active": 0,
        "address": {
            "country": "RU",
            "lat": 46.112948,
            "lon": 48.066545,
            "region": "Астраханская обл",
            "city": "Камызяк г",
            "postalcode": "416340",
            "street": "А.П.Гужвина ул",
            "housenumber": "1"
        }
    },
    "Магазин №216": {
        "code": 269,
        "active": 1,
        "address": {
            "country": "RU",
            "lat": 50.741976,
            "lon": 43.059795,
            "region": "Волгоградская обл",
            "city": "Преображенская ст-ца",
            "postalcode": "403221",
            "street": "Мира ул,дом № 72, Комсомольская ул, дом № 53",
            "housenumber": ""
        }
    },
    "Магазин №217": {
        "code": 270,
        "active": 1,
        "address": {
            "country": "RU",
            "lat": 48.677073,
            "lon": 43.545572,
            "region": "Волгоградская обл",
            "city": "Калач-на-Дону",
            "postalcode": "404503",
            "street": "Чекмарева ул",
            "housenumber": "1"
        }
    },
    "Магазин №218": {
        "code": 271,
        "active": 0,
        "address": {
            "country": "RU",
            "lat": 45.71398,
            "lon": 42.913263,
            "region": "Ставропольский край",
            "city": "Ипатово",
            "postalcode": "356630",
            "street": "Гагарина ул",
            "housenumber": "104а"
        }
    },
    "Магазин №219": {
        "code": 272,
        "active": 0,
        "address": {
            "country": "RU",
            "lat": 46.402821,
            "lon": 48.542031,
            "region": "Астраханская обл",
            "city": "Володарский п",
            "postalcode": "416170",
            "street": "Октябрьская пл",
            "housenumber": "4"
        }
    },
    "Магазин №220": {
        "code": 273,
        "active": 0,
        "address": {
            "country": "RU",
            "lat": 48.807422,
            "lon": 44.483647,
            "region": "Волгоградская обл",
            "city": "Городище рп",
            "postalcode": "403003",
            "street": "Промышленная ул",
            "housenumber": "8а"
        }
    },
    "Магазин №221": {
        "code": 274,
        "active": 1,
        "address": {
            "country": "RU",
            "lat": 48.765122,
            "lon": 44.478802,
            "region": "Волгоградская обл",
            "city": "Волгоград",
            "postalcode": "400075",
            "street": "Краснополянская ул",
            "housenumber": "26"
        }
    },
    "Магазин №222": {
        "code": 275,
        "active": 1,
        "address": {
            "country": "RU",
            "lat": 46.309584,
            "lon": 44.269269,
            "region": "Калмыкия респ",
            "city": "Элиста",
            "postalcode": "358009",
            "street": "А.С.Пушкина ул",
            "housenumber": "22"
        }
    },
    "Магазин №223": {
        "code": 276,
        "active": 0,
        "address": {
            "country": "RU",
            "lat": 48.701633,
            "lon": 44.503143,
            "region": "Волгоградская обл",
            "city": "Волгоград",
            "postalcode": "400001",
            "street": "им Калинина ул",
            "housenumber": "23"
        }
    },
    "Магазин №224": {
        "code": 277,
        "active": 0,
        "address": {
            "country": "RU",
            "lat": 46.095614,
            "lon": 47.730231,
            "region": "Астраханская обл",
            "city": "Икряное с",
            "postalcode": "416370",
            "street": "Зеленая ул",
            "housenumber": "5"
        }
    },
    "Магазин №225": {
        "code": 278,
        "active": 0,
        "address": {
            "country": "RU",
            "lat": 45.372811,
            "lon": 44.22665,
            "region": "Ставропольский край",
            "city": "Арзгир с",
            "postalcode": "356571",
            "street": "Дружбы ул",
            "housenumber": "1а"
        }
    },
    "Магазин №226": {
        "code": 279,
        "address": {
            "country": "RU",
            "region": "Калмыкия Респ",
            "city": "Элиста г",
            "postalcode": "358007",
            "street": "1 мкр",
            "housenumber": "6"
        }
    },
    "Магазин №227": {
        "code": 280,
        "active": 1,
        "address": {
            "country": "RU",
            "lat": 45.846212,
            "lon": 47.565793,
            "region": "Астраханская обл",
            "city": "Оранжереи с",
            "postalcode": "416352",
            "street": "Кирова ул",
            "housenumber": "9"
        }
    },
    "Магазин №228": {
        "code": 281,
        "active": 0,
        "address": {
            "country": "RU",
            "lat": 48.595597,
            "lon": 44.427485,
            "region": "Волгоградская обл",
            "city": "Волгоград",
            "postalcode": "400059",
            "street": "им Кирова ул",
            "housenumber": "64"
        }
    },
    "Магазин №229": {
        "code": 282,
        "active": 1,
        "address": {
            "country": "RU",
            "lat": 49.29239,
            "lon": 43.982224,
            "region": "Волгоградская обл",
            "city": "Иловля рп",
            "postalcode": "403071",
            "street": "Королева ул",
            "housenumber": "1"
        }
    },
    "Магазин №230": {
        "code": 283,
        "active": 1,
        "address": {
            "country": "RU",
            "lat": 48.06273,
            "lon": 46.112608,
            "region": "Астраханская обл",
            "city": "Черный Яр с",
            "postalcode": "416230",
            "street": "Нестеровского ул",
            "housenumber": "5"
        }
    },
    "Магазин №231": {
        "code": 284,
        "active": 0,
        "address": {
            "country": "RU",
            "lat": 49.76638,
            "lon": 43.647067,
            "region": "Волгоградская обл",
            "city": "Фролово",
            "postalcode": "403540",
            "street": "Фроловская ул",
            "housenumber": "12"
        }
    },
    "Магазин №232": {
        "code": 285,
        "active": 1,
        "address": {
            "country": "RU",
            "lat": 47.852369,
            "lon": 45.42124,
            "region": "Калмыкия респ",
            "city": "Большой Царын п",
            "postalcode": "359450",
            "street": "Зеленая ул",
            "housenumber": "28/4"
        }
    },
    "Магазин №233": {
        "code": 286,
        "active": 0,
        "address": {
            "country": "RU",
            "lat": 48.698196,
            "lon": 44.496275,
            "region": "Волгоградская обл",
            "city": "Волгоград",
            "postalcode": "400001",
            "street": "Козловская ул",
            "housenumber": "15"
        }
    },
    "Магазин №234": {
        "code": 287,
        "active": 1,
        "address": {
            "country": "RU",
            "lat": 48.931147,
            "lon": 44.63266,
            "region": "Волгоградская обл",
            "city": "Ерзовка рп",
            "postalcode": "403010",
            "street": "Молодежная квартал 4 ул",
            "housenumber": "19"
        }
    },
    "Магазин №236": {
        "code": 289,
        "active": 0,
        "address": {
            "country": "RU",
            "lat": 46.203372,
            "lon": 47.861853,
            "region": "Астраханская обл",
            "city": "Красные Баррикады рп",
            "postalcode": "416356",
            "street": "Баррикадная ул",
            "housenumber": "11"
        }
    },
    "Магазин №237": {
        "code": 290,
        "active": 1,
        "address": {
            "country": "RU",
            "lat": 48.753624,
            "lon": 44.808033,
            "region": "Волгоградская обл",
            "city": "Волжский",
            "postalcode": "404133",
            "street": "им генерала Карбышева ул",
            "housenumber": "149"
        }
    },
    "Магазин №238": {
        "code": 291,
        "active": 0,
        "address": {
            "country": "RU",
            "lat": 47.644634,
            "lon": 42.085694,
            "region": "Ростовская обл",
            "city": "Цимлянск",
            "postalcode": "347320",
            "street": "Московская ул",
            "housenumber": "78А"
        }
    },
    "Магазин №239": {
        "code": 292,
        "active": 1,
        "address": {
            "country": "RU",
            "lat": 48.81046,
            "lon": 44.744407,
            "region": "Волгоградская обл",
            "city": "Волжский",
            "postalcode": "404122",
            "street": "Горького ул",
            "housenumber": "11В"
        }
    },
    "Магазин №240": {
        "code": 293,
        "active": 0,
        "address": {
            "country": "RU",
            "lat": 46.17392,
            "lon": 45.34815,
            "region": "Калмыкия респ",
            "city": "Яшкуль п",
            "postalcode": "359150",
            "street": "Коломейцева ул",
            "housenumber": "13"
        }
    },
    "Магазин №241": {
        "code": 294,
        "active": 0,
        "address": {
            "country": "RU",
            "lat": 45.779336,
            "lon": 47.222881,
            "region": "Астраханская обл",
            "city": "Лиман рп",
            "postalcode": "416411",
            "street": "Ленина ул",
            "housenumber": "50Б"
        }
    },
    "Магазин №242": {
        "code": 295,
        "active": 0,
        "address": {
            "country": "RU",
            "lat": 48.75192,
            "lon": 44.505809,
            "region": "Волгоградская обл",
            "city": "Волгоград г",
            "postalcode": "400137",
            "street": "8 Воздушной Армии ул",
            "housenumber": "28"
        }
    },
    "Магазин №243": {
        "code": 296,
        "active": 1,
        "address": {
            "country": "RU",
            "lat": 50.094488,
            "lon": 43.297279,
            "region": "Волгоградская обл",
            "city": "Михайловка",
            "postalcode": "403310",
            "street": "Целинная ул",
            "housenumber": "22А"
        }
    },
    "Магазин №244": {
        "code": 297,
        "active": 1,
        "address": {
            "country": "RU",
            "lat": 48.781866,
            "lon": 44.377941,
            "region": "Волгоградская обл",
            "city": "Волгоград",
            "postalcode": "400122",
            "street": "им В.И. Ленина",
            "housenumber": "26А"
        }
    },
    "Магазин №245": {
        "code": 298,
        "active": 1,
        "address": {
            "country": "RU",
            "lat": 49.75169,
            "lon": 43.654483,
            "region": "Волгоградская обл",
            "city": "Фролово",
            "postalcode": "403535",
            "street": "Арчединская ул",
            "housenumber": "80"
        }
    },
    "Магазин №246": {
        "code": 299,
        "active": 1,
        "address": {
            "country": "RU",
            "lat": 45.389433,
            "lon": 47.363068,
            "region": "Калмыкия респ",
            "city": "Лагань",
            "postalcode": "359220",
            "street": "Жигульского ул",
            "housenumber": "4Г"
        }
    },
    "Магазин №247": {
        "code": 300,
        "active": 0,
        "address": {
            "country": "RU",
            "lat": 49.627807,
            "lon": 41.750553,
            "region": "Ростовская обл",
            "city": "Вешенская ст-ца",
            "postalcode": "346270",
            "street": "Калинина ул",
            "housenumber": "167"
        }
    },
    "Магазин №248": {
        "code": 301,
        "active": 1,
        "address": {
            "country": "RU",
            "lat": 49.799462,
            "lon": 41.131868,
            "region": "Ростовская обл",
            "city": "Казанская ст-ца",
            "postalcode": "346170",
            "street": "Тимирязева ул",
            "housenumber": "141Б"
        }
    },
    "Магазин №249": {
        "code": 302,
        "active": 1,
        "address": {
            "country": "RU",
            "lat": 46.269158,
            "lon": 47.968272,
            "region": "Астраханская обл",
            "city": "Астрахань",
            "postalcode": "414019",
            "street": "Девятый пер",
            "housenumber": "14-16-18лит.С"
        }
    },
    "Магазин №250": {
        "code": 303,
        "active": 1,
        "address": {
            "country": "RU",
            "lat": 50.02949,
            "lon": 45.44977,
            "region": "Волгоградская обл",
            "city": "Николаевск",
            "postalcode": "404033",
            "street": "Шевченко ул",
            "housenumber": "3"
        }
    },
    "Магазин №251": {
        "code": 304,
        "active": 0,
        "address": {
            "country": "RU",
            "lat": 46.120129,
            "lon": 48.079352,
            "region": "Астраханская обл",
            "city": "Камызяк",
            "postalcode": "416300",
            "street": "Молодежная ул",
            "housenumber": "4А"
        }
    },
    "Магазин №252": {
        "code": 305,
        "active": 0,
        "address": {
            "country": "RU",
            "lat": 48.522013,
            "lon": 44.57268,
            "region": "Волгоградская обл",
            "city": "Волгоград г",
            "postalcode": "400031",
            "street": "Канатчиков п-т",
            "housenumber": "1"
        }
    },
    "Магазин №253": {
        "code": 306,
        "active": 0,
        "address": {
            "country": "RU",
            "lat": 46.346732,
            "lon": 48.068416,
            "region": "Астраханская обл",
            "city": "Астрахань",
            "postalcode": "414004",
            "street": "Софьи Перовской ул",
            "housenumber": "75литерАпомещение3А"
        }
    },
    "Магазин №254": {
        "code": 307,
        "active": 1,
        "address": {
            "country": "RU",
            "lat": 47.762575,
            "lon": 46.405742,
            "region": "Астраханская обл",
            "city": "Никольское с",
            "postalcode": "416222",
            "street": "Московская ул",
            "housenumber": "86"
        }
    },
    "Магазин №255": {
        "code": 308,
        "active": 1,
        "address": {
            "country": "RU",
            "lat": 48.345956,
            "lon": 41.841095,
            "region": "Ростовская обл",
            "city": "Морозовск",
            "postalcode": "347210",
            "street": "Ворошилова ул",
            "housenumber": "266"
        }
    },
    "Магазин №256": {
        "code": 309,
        "active": 1,
        "address": {
            "country": "RU",
            "lat": 48.506636,
            "lon": 44.529154,
            "region": "Волгоградская обл",
            "city": "Волгоград",
            "postalcode": "400086",
            "street": "Героев Малой Земли ул",
            "housenumber": "36"
        }
    },
    "Магазин №257": {
        "code": 310,
        "active": 1,
        "address": {
            "country": "RU",
            "lat": 47.404753,
            "lon": 47.248186,
            "region": "Астраханская обл",
            "city": "Харабали",
            "postalcode": "416010",
            "street": "Ленина ул",
            "housenumber": "9"
        }
    },
    "Магазин №258": {
        "code": 311,
        "active": 1,
        "address": {
            "country": "RU",
            "lat": 48.68816,
            "lon": 44.485606,
            "region": "Волгоградская обл",
            "city": "Волгоград",
            "postalcode": "400074",
            "street": "Рабоче-Крестьянская ул",
            "housenumber": "53"
        }
    },
    "Магазин №259": {
        "code": 312,
        "active": 1,
        "address": {
            "country": "RU",
            "lat": 47.410541,
            "lon": 42.772418,
            "region": "Ростовская обл",
            "city": "Дубовское с",
            "postalcode": "347410",
            "street": "Первомайская ул",
            "housenumber": "75А"
        }
    },
    "Магазин №260": {
        "code": 313,
        "active": 1,
        "address": {
            "country": "RU",
            "lat": 47.308052,
            "lon": 44.525856,
            "region": "Калмыкия респ",
            "city": "Кетченеры п",
            "postalcode": "359120",
            "street": "Ленина ул",
            "housenumber": "85"
        }
    },
    "Магазин №261": {
        "code": 314,
        "active": 1,
        "address": {
            "country": "RU",
            "lat": 48.777042,
            "lon": 44.759301,
            "region": "Волгоградская обл",
            "city": "Волжский",
            "postalcode": "404120",
            "street": "им Ленина пр-кт",
            "housenumber": "104а"
        }
    },
    "Магазин №262": {
        "code": 315,
        "active": 0,
        "address": {
            "country": "RU",
            "lat": 47.321438,
            "lon": 40.369035,
            "region": "Ростовская обл",
            "city": "Багаевская ст-ца",
            "postalcode": "346611",
            "street": "Московская ул",
            "housenumber": "43А"
        }
    },
    "Магазин №263": {
        "code": 316,
        "active": 1,
        "address": {
            "country": "RU",
            "lat": 48.786588,
            "lon": 44.745177,
            "region": "Волгоградская обл",
            "city": "Волжский",
            "postalcode": "404111",
            "street": "Набережная ул",
            "housenumber": "77"
        }
    },
    "Магазин №264": {
        "code": 317,
        "active": 0,
        "address": {
            "country": "RU",
            "lat": 46.701871,
            "lon": 41.723707,
            "region": "Ростовская обл",
            "city": "Пролетарск",
            "postalcode": "347540",
            "street": "Думенко ул",
            "housenumber": "130а"
        }
    },
    "Магазин №265": {
        "code": 318,
        "active": 1,
        "address": {
            "country": "RU",
            "lat": 50.949112,
            "lon": 43.771787,
            "region": "Волгоградская обл",
            "city": "Елань рп",
            "postalcode": "403731",
            "street": "Вокзальная ул",
            "housenumber": "81/4-6"
        }
    },
    "Магазин №266": {
        "code": 319,
        "active": 1,
        "address": {
            "country": "RU",
            "lat": 48.806963,
            "lon": 44.734824,
            "region": "Волгоградская обл",
            "city": "Волжский",
            "postalcode": "404130",
            "street": "им Ленина пр-кт",
            "housenumber": "10"
        }
    },
    "Магазин №267": {
        "code": 320,
        "active": 0,
        "address": {
            "country": "RU",
            "lat": 46.559392,
            "lon": 43.650128,
            "region": "Ростовская обл",
            "city": "Ремонтное с",
            "postalcode": "347480",
            "street": "Базарная ул",
            "housenumber": "3"
        }
    },
    "Магазин №268": {
        "code": 321,
        "active": 1,
        "address": {
            "country": "RU",
            "lat": 48.709744,
            "lon": 45.016261,
            "region": "Волгоградская обл",
            "city": "Заплавное с",
            "postalcode": "404609",
            "street": "Гагарина ул",
            "housenumber": "6"
        }
    },
    "Магазин №269": {
        "code": 322,
        "active": 1,
        "address": {
            "country": "RU",
            "lat": 48.312172,
            "lon": 46.14822,
            "region": "Астраханская обл",
            "city": "Ахтубинск",
            "postalcode": "416500",
            "street": "Волгоградская ул",
            "housenumber": "8"
        }
    },
    "Магазин №270": {
        "code": 323,
        "active": 1,
        "address": {
            "country": "RU",
            "lat": 50.074277,
            "lon": 43.237433,
            "region": "Волгоградская обл",
            "city": "Михайловка",
            "postalcode": "403342",
            "street": "Республиканская ул",
            "housenumber": "44"
        }
    },
    "Магазин №271": {
        "code": 324,
        "active": 1,
        "address": {
            "country": "RU",
            "lat": 49.888803,
            "lon": 42.576695,
            "region": "Волгоградская обл",
            "city": "Кумылженская ст-ца",
            "postalcode": "403401",
            "street": "Адмирала Тихонова ул",
            "housenumber": "23"
        }
    },
    "Магазин №272": {
        "code": 325,
        "active": 0,
        "address": {
            "country": "RU",
            "lat": 46.467075,
            "lon": 41.561117,
            "region": "Ростовская обл",
            "city": "Сальск",
            "postalcode": "347632",
            "street": "Социалистическая ул",
            "housenumber": "168"
        }
    },
    "Магазин №273": {
        "code": 326,
        "active": 1,
        "address": {
            "country": "RU",
            "lat": 46.419201,
            "lon": 47.987525,
            "region": "Астраханская обл",
            "city": "Астрахань",
            "postalcode": "414042",
            "street": "Бумажников пр-кт",
            "housenumber": "18литерАпомещение001"
        }
    },
    "Магазин №274": {
        "code": 327,
        "active": 1,
        "address": {
            "country": "RU",
            "lat": 48.521528,
            "lon": 44.562556,
            "region": "Волгоградская обл",
            "city": "Волгоград",
            "postalcode": "400082",
            "street": "им Вучетича ул",
            "housenumber": "21"
        }
    },
    "Магазин №275": {
        "code": 328,
        "active": 0,
        "address": {
            "country": "RU",
            "lat": 47.57425,
            "lon": 41.117517,
            "region": "Ростовская обл",
            "city": "Константиновск",
            "postalcode": "347254",
            "street": "КГУ-1 п",
            "housenumber": "12пом1"
        }
    },
    "Магазин №276": {
        "code": 329,
        "active": 0,
        "address": {
            "country": "RU",
            "lat": 49.007534,
            "lon": 42.119162,
            "region": "Ростовская обл",
            "city": "Советская ст-ца",
            "postalcode": "347180",
            "street": "40 лет Октября ул",
            "housenumber": "51"
        }
    },
    "Магазин №277": {
        "code": 330,
        "active": 1,
        "address": {
            "country": "RU",
            "lat": 49.019022,
            "lon": 44.230864,
            "region": "Волгоградская обл",
            "city": "Котлубань п",
            "postalcode": "403018",
            "street": "Шлихтера ул",
            "housenumber": "4"
        }
    },
    "Магазин №278": {
        "code": 331,
        "active": 0,
        "address": {
            "country": "RU",
            "lat": 50.132157,
            "lon": 45.208771,
            "region": "Волгоградская обл",
            "city": "Петров Вал",
            "postalcode": "403840",
            "street": "Ленина ул",
            "housenumber": "28"
        }
    },
    "Магазин №279": {
        "code": 332,
        "active": 0,
        "address": {
            "country": "RU",
            "lat": 47.584307,
            "lon": 41.119456,
            "region": "Ростовская обл",
            "city": "Константиновск",
            "postalcode": "347250",
            "street": "24 Гвардейской Дивизии ул",
            "housenumber": "1е"
        }
    },
    "Магазин №280": {
        "code": 333,
        "active": 0,
        "address": {
            "country": "RU",
            "lat": 47.14221,
            "lon": 42.473479,
            "region": "Ростовская обл",
            "city": "Зимовники п",
            "postalcode": "347460",
            "street": "Дзержинского ул",
            "housenumber": "99"
        }
    },
    "Магазин №281": {
        "code": 334,
        "active": 1,
        "address": {
            "country": "RU",
            "lat": 47.560179,
            "lon": 46.714865,
            "region": "Калмыкия респ",
            "city": "Цаган Аман п",
            "postalcode": "359300",
            "street": "Аюки-хана ул",
            "housenumber": "17а"
        }
    },
    "Магазин №282": {
        "code": 335,
        "active": 1,
        "address": {
            "country": "RU",
            "lat": 49.038626,
            "lon": 41.002759,
            "region": "Ростовская обл",
            "city": "Кашары сл",
            "postalcode": "346200",
            "street": "Ленина ул",
            "housenumber": "51"
        }
    },
    "Магазин №283": {
        "code": 336,
        "active": 1,
        "address": {
            "country": "RU",
            "lat": 46.859078,
            "lon": 42.025759,
            "region": "Ростовская обл",
            "city": "Орловский п",
            "postalcode": "347513",
            "street": "Лесная ул",
            "housenumber": "29"
        }
    },
    "Магазин №284": {
        "code": 337,
        "active": 1,
        "address": {
            "country": "RU",
            "lat": 50.091672,
            "lon": 45.414675,
            "region": "Волгоградская обл",
            "city": "Камышин",
            "postalcode": "403886",
            "street": "Тургенева ул",
            "housenumber": "23"
        }
    },
    "Магазин №285": {
        "code": 338,
        "active": 1,
        "address": {
            "country": "RU",
            "lat": 48.770016,
            "lon": 44.812858,
            "region": "Волгоградская обл",
            "city": "Волжский",
            "postalcode": "404131",
            "street": "Оломоуцкая ул",
            "housenumber": "45и"
        }
    },
    "Магазин №286": {
        "code": 339,
        "active": 1,
        "address": {
            "country": "RU",
            "lat": 47.619482,
            "lon": 43.139545,
            "region": "Волгоградская обл",
            "city": "Котельниково",
            "postalcode": "404353",
            "street": "Орлова ул",
            "housenumber": "16"
        }
    },
    "Магазин №287": {
        "code": 340,
        "active": 0,
        "address": {
            "country": "RU",
            "lat": 46.129533,
            "lon": 48.078121,
            "region": "Астраханская обл",
            "city": "Камызяк",
            "postalcode": "416341",
            "street": "Любича ул",
            "housenumber": "19"
        }
    },
    "Магазин №288": {
        "code": 341,
        "active": 1,
        "address": {
            "country": "RU",
            "lat": 46.308335,
            "lon": 44.270406,
            "region": "Калмыкия респ",
            "city": "Элиста",
            "postalcode": "358014",
            "street": "8-й мкр",
            "housenumber": "7"
        }
    },
    "Магазин №289": {
        "code": 342,
        "active": 1,
        "address": {
            "country": "RU",
            "lat": 46.461801,
            "lon": 47.965133,
            "region": "Астраханская обл",
            "city": "Астрахань",
            "postalcode": "414026",
            "street": "Силикатная ул",
            "housenumber": "28"
        }
    },
    "Магазин №290": {
        "code": 343,
        "active": 1,
        "address": {
            "country": "RU",
            "lat": 50.740605,
            "lon": 43.053116,
            "region": "Волгоградская обл",
            "city": "Преображенская ст-ца",
            "postalcode": "403221",
            "street": "Мира ул",
            "housenumber": "23а"
        }
    },
    "Магазин №291": {
        "code": 344,
        "active": 1,
        "address": {
            "country": "RU",
            "lat": 48.696483,
            "lon": 44.484997,
            "region": "Волгоградская обл",
            "city": "Волгоград",
            "postalcode": "400120",
            "street": "им милиционера Буханцева ул",
            "housenumber": "22"
        }
    },
    "Магазин №292": {
        "code": 345,
        "active": 0,
        "address": {
            "country": "RU",
            "lat": 48.35738,
            "lon": 41.824537,
            "region": "Ростовская обл",
            "city": "Морозовск",
            "postalcode": "347210",
            "street": "Подтелкова ул",
            "housenumber": "40"
        }
    },
    "Магазин №293": {
        "code": 346,
        "active": 0,
        "address": {
            "country": "RU",
            "lat": 46.097255,
            "lon": 43.507484,
            "region": "Калмыкия респ",
            "city": "Приютное с",
            "postalcode": "359030",
            "street": "Московская ул",
            "housenumber": "83"
        }
    },
    "Магазин №294": {
        "code": 347,
        "active": 1,
        "address": {
            "country": "RU",
            "lat": 46.687906,
            "lon": 47.852264,
            "region": "Астраханская обл",
            "city": "Нариманов",
            "postalcode": "416111",
            "street": "Астраханская ул",
            "housenumber": "1"
        }
    },
    "Магазин №295": {
        "code": 348,
        "active": 1,
        "address": {
            "country": "RU",
            "lat": 50.074575,
            "lon": 47.098294,
            "region": "Волгоградская обл",
            "city": "Савинка с",
            "postalcode": "404231",
            "street": "Чапаева ул",
            "housenumber": "125"
        }
    },
    "Магазин №296": {
        "code": 350,
        "active": 1,
        "address": {
            "country": "RU",
            "lat": 50.525132,
            "lon": 42.693737,
            "region": "Волгоградская обл",
            "city": "Новоаннинский",
            "postalcode": "403952",
            "street": "Пионерская ул",
            "housenumber": "138д"
        }
    },
    "Магазин №297": {
        "code": 351,
        "active": 1,
        "address": {
            "country": "RU",
            "lat": 48.622441,
            "lon": 41.661977,
            "region": "Ростовская обл",
            "city": "Милютинская ст-ца",
            "postalcode": "347120",
            "street": "Октябрьская ул",
            "housenumber": "4"
        }
    },
    "Магазин №298": {
        "code": 352,
        "active": 1,
        "address": {
            "country": "RU",
            "lat": 49.798771,
            "lon": 41.146939,
            "region": "Ростовская обл",
            "city": "Казанская ст-ца",
            "postalcode": "346170",
            "street": "Матросова ул",
            "housenumber": "32"
        }
    },
    "Магазин №299": {
        "code": 353,
        "active": 0,
        "address": {
            "country": "RU",
            "lat": 46.083442,
            "lon": 41.929387,
            "region": "Калмыкия респ",
            "city": "Городовиковск",
            "postalcode": "359050",
            "street": "Советская ул",
            "housenumber": "55"
        }
    },
    "Магазин №300": {
        "code": 354,
        "active": 1,
        "address": {
            "country": "RU",
            "lat": 48.760803,
            "lon": 44.814488,
            "region": "Волгоградская обл",
            "city": "Волжский",
            "postalcode": "404118",
            "street": "Мира ул",
            "housenumber": "110а"
        }
    },
    "Магазин №301": {
        "code": 355,
        "active": 1,
        "address": {
            "country": "RU",
            "lat": 49.229235,
            "lon": 41.832342,
            "region": "Ростовская обл",
            "city": "Боковская ст-ца",
            "postalcode": "346250",
            "street": "Подтелкова ул",
            "housenumber": "64"
        }
    },
    "Магазин №302": {
        "code": 356,
        "active": 1,
        "address": {
            "country": "RU",
            "lat": 50.101226,
            "lon": 45.41777,
            "region": "Волгоградская обл",
            "city": "Камышин",
            "postalcode": "403874",
            "street": "Терешковой ул",
            "housenumber": "6А"
        }
    },
    "Магазин №303": {
        "code": 357,
        "active": 1,
        "address": {
            "country": "RU",
            "lat": 47.275441,
            "lon": 41.663728,
            "region": "Ростовская обл",
            "city": "Большая Мартыновка сл",
            "postalcode": "346660",
            "street": "Кабардино-Балкарская ул",
            "housenumber": "7"
        }
    },
    "Магазин №304": {
        "code": 358,
        "active": 1,
        "address": {
            "country": "RU",
            "lat": 48.298462,
            "lon": 46.156984,
            "region": "Астраханская обл",
            "city": "Ахтубинск",
            "postalcode": "416500",
            "street": "Пересечение ул. Октябрьская/ул. Гагарина",
            "housenumber": "17Б"
        }
    },
    "Магазин №305": {
        "code": 359,
        "active": 1,
        "address": {
            "country": "RU",
            "lat": 50.351881,
            "lon": 44.121348,
            "region": "Волгоградская обл",
            "city": "Даниловка рп",
            "postalcode": "403371",
            "street": "Центральная ул",
            "housenumber": "94"
        }
    },
    "Магазин №306": {
        "code": 360,
        "active": 1,
        "address": {
            "country": "RU",
            "lat": 48.62026,
            "lon": 42.841689,
            "region": "Волгоградская обл",
            "city": "Суровикино",
            "postalcode": "404413",
            "street": "Шоссейная ул",
            "housenumber": "73А"
        }
    },
    "Магазин №307": {
        "code": 361,
        "active": 1,
        "address": {
            "country": "RU",
            "lat": 47.637762,
            "lon": 43.149038,
            "region": "Волгоградская обл",
            "city": "Котельниково",
            "postalcode": "404353",
            "street": "Родина ул",
            "housenumber": "21"
        }
    },
    "Магазин №308": {
        "code": 362,
        "active": 1,
        "address": {
            "country": "RU",
            "lat": 46.101612,
            "lon": 47.724376,
            "region": "Астраханская обл",
            "city": "Икряное с",
            "postalcode": "416370",
            "street": "Олега Кошевого ул",
            "housenumber": "46Б"
        }
    },
    "Магазин №309": {
        "code": 363,
        "active": 1,
        "address": {
            "country": "RU",
            "lat": 48.689736,
            "lon": 44.312269,
            "region": "Волгоградская обл",
            "city": "Горьковский",
            "postalcode": "400038",
            "street": "им Валентины Терешковой ул",
            "housenumber": "42А"
        }
    },
    "Магазин №310": {
        "code": 364,
        "active": 1,
        "address": {
            "country": "RU",
            "lat": 48.782379,
            "lon": 44.779332,
            "region": "Волгоградская обл",
            "city": "Волжский",
            "postalcode": "404102",
            "street": "Профсоюзов б-р",
            "housenumber": "19Г"
        }
    },
    "Магазин №311": {
        "code": 365,
        "active": 0,
        "address": {
            "country": "RU",
            "lat": 48.511849,
            "lon": 44.573012,
            "region": "Волгоградская обл",
            "city": "Волгоград",
            "postalcode": "400051",
            "street": "40 лет ВЛКСМ ул",
            "housenumber": "17"
        }
    },
    "Магазин №312": {
        "code": 366,
        "active": 1,
        "address": {
            "country": "RU",
            "lat": 48.695401,
            "lon": 44.491661,
            "region": "Волгоградская обл",
            "city": "Волгоград",
            "postalcode": "400074",
            "street": "Козловская ул",
            "housenumber": "31"
        }
    },
    "Магазин №313": {
        "code": 367,
        "active": 1,
        "address": {
            "country": "RU",
            "lat": 50.970126,
            "lon": 42.369238,
            "region": "Волгоградская обл",
            "city": "Новониколаевский рп",
            "postalcode": "403901",
            "street": "Народная ул",
            "housenumber": "108А"
        }
    },
    "Магазин №314": {
        "code": 368,
        "active": 1,
        "address": {
            "country": "RU",
            "lat": 50.97632,
            "lon": 44.777379,
            "region": "Волгоградская обл",
            "city": "Жирновск",
            "postalcode": "403791",
            "street": "Ломоносова ул",
            "housenumber": "52/2"
        }
    },
    "Магазин №315": {
        "code": 369,
        "active": 0,
        "address": {
            "country": "RU",
            "lat": 48.781437,
            "lon": 44.766078,
            "region": "Волгоградская обл",
            "city": "Волжский",
            "postalcode": "404120",
            "street": "им генерала Карбышева ул",
            "housenumber": "70а"
        }
    },
    "Магазин №316": {
        "code": 370,
        "active": 0,
        "address": {
            "country": "RU",
            "lat": 48.754697,
            "lon": 44.501551,
            "region": "Волгоградская обл",
            "city": "Волгоград",
            "postalcode": "400117",
            "street": "8-й Воздушной Армии ул",
            "housenumber": "35"
        }
    },
    "Магазин №317": {
        "code": 371,
        "active": 1,
        "address": {
            "country": "RU",
            "lat": 48.690929,
            "lon": 44.454875,
            "region": "Волгоградская обл",
            "city": "Волгоград",
            "postalcode": "400054",
            "street": "Огородная ул",
            "housenumber": "17"
        }
    },
    "Магазин №318": {
        "code": 372,
        "active": 1,
        "address": {
            "country": "RU",
            "lat": 48.812274,
            "lon": 44.574225,
            "region": "Волгоградская обл",
            "city": "Волгоград",
            "postalcode": "400046",
            "street": "Путиловская ул",
            "housenumber": "8"
        }
    },
    "Магазин №319": {
        "code": 373,
        "active": 0,
        "address": {
            "country": "RU",
            "lat": 48.176851,
            "lon": 40.779813,
            "region": "Ростовская обл",
            "city": "Белая Калитва г",
            "postalcode": "347045",
            "street": "Копаева ул",
            "housenumber": "20Б"
        }
    },
    "Магазин №320": {
        "code": 374,
        "active": 1,
        "address": {
            "country": "RU",
            "lat": 48.012954,
            "lon": 40.831331,
            "region": "Ростовская обл",
            "city": "Синегорский п",
            "postalcode": "347027",
            "street": "Школьный пер",
            "housenumber": "1б"
        }
    },
    "Магазин №321": {
        "code": 375,
        "active": 0,
        "address": {
            "country": "RU",
            "lat": 48.515812,
            "lon": 44.544455,
            "region": "Волгоградская обл",
            "city": "Волгоград",
            "postalcode": "400112",
            "street": "им Энгельса б-р",
            "housenumber": "19а"
        }
    },
    "Магазин №322": {
        "code": 376,
        "active": 1,
        "address": {
            "country": "RU",
            "lat": 47.411126,
            "lon": 47.251474,
            "region": "Астраханская обл",
            "city": "Харабали",
            "postalcode": "416010",
            "street": "7-й кв-л",
            "housenumber": "28"
        }
    },
    "Магазин №323": {
        "code": 377,
        "active": 1,
        "address": {
            "country": "RU",
            "lat": 46.356627,
            "lon": 48.117791,
            "region": "Астраханская обл",
            "city": "Астрахань",
            "postalcode": "414011",
            "street": "Космонавта Комарова ул",
            "housenumber": "65Б"
        }
    },
    "Магазин №324": {
        "code": 378,
        "active": 1,
        "address": {
            "country": "RU",
            "lat": 48.712281,
            "lon": 44.516445,
            "region": "Волгоградская обл",
            "city": "Волгоград",
            "postalcode": "400066",
            "street": "Комсомольская ул",
            "housenumber": "18"
        }
    },
    "Магазин №325": {
        "code": 379,
        "active": 1,
        "address": {
            "country": "RU",
            "lat": 48.282618,
            "lon": 41.048544,
            "region": "Ростовская обл",
            "city": "Шолоховский рп",
            "postalcode": "347022",
            "street": "М.Горького ул",
            "housenumber": "11А"
        }
    },
    "Магазин №326": {
        "code": 380,
        "active": 0,
        "address": {
            "country": "RU",
            "lat": 48.234149,
            "lon": 46.722213,
            "region": "Астраханская обл",
            "city": "Верхний Баскунчак п",
            "postalcode": "416530",
            "street": "Советская ул",
            "housenumber": "31"
        }
    },
    "Магазин №327": {
        "code": 381,
        "active": 1,
        "address": {
            "country": "RU",
            "lat": 48.729607,
            "lon": 44.540143,
            "region": "Волгоградская обл",
            "city": "Волгоград",
            "postalcode": "400005",
            "street": "им В.И.Ленина пр-кт",
            "housenumber": "62"
        }
    },
    "Магазин №328": {
        "code": 382,
        "active": 1,
        "address": {
            "country": "RU",
            "lat": 48.414682,
            "lon": 44.585939,
            "region": "Волгоградская обл",
            "city": "Большие Чапурники с",
            "postalcode": "404174",
            "street": "Новостройка ул",
            "housenumber": "166Д"
        }
    },
    "Магазин №329": {
        "code": 383,
        "active": 1,
        "address": {
            "country": "RU",
            "lat": 48.524285,
            "lon": 44.489868,
            "region": "Волгоградская обл",
            "city": "Волгоград",
            "postalcode": "400022",
            "street": "Лазоревая ул",
            "housenumber": "177А"
        }
    },
    "Магазин №330": {
        "code": 384,
        "active": 0,
        "address": {
            "country": "RU",
            "lat": 48.759289,
            "lon": 44.794806,
            "region": "Волгоградская обл",
            "city": "Волжский",
            "postalcode": "404133",
            "street": "им генерала Карбышева ул",
            "housenumber": "132"
        }
    },
    "Магазин №331": {
        "code": 385,
        "active": 1,
        "address": {
            "country": "RU",
            "lat": 48.896019,
            "lon": 44.78214,
            "region": "Волгоградская обл",
            "city": "Волжский",
            "postalcode": "404124",
            "street": "Чехова ул",
            "housenumber": "2"
        }
    },
    "Магазин №332": {
        "code": 386,
        "active": 1,
        "address": {
            "country": "RU",
            "lat": 48.730867,
            "lon": 44.534977,
            "region": "Волгоградская обл",
            "city": "Волгоград",
            "postalcode": "400005",
            "street": "им Глазкова ул",
            "housenumber": "23"
        }
    },
    "Магазин №333": {
        "code": 387,
        "active": 1,
        "address": {
            "country": "RU",
            "lat": 48.765596,
            "lon": 44.513005,
            "region": "Волгоградская обл",
            "city": "Волгоград",
            "postalcode": "400075",
            "street": "Дорожников проезд",
            "housenumber": "44"
        }
    },
    "Магазин №334": {
        "code": 388,
        "active": 1,
        "address": {
            "country": "RU",
            "lat": 48.80735,
            "lon": 44.594113,
            "region": "Волгоградская обл",
            "city": "Волгоград",
            "postalcode": "400006",
            "street": "им Дегтярева ул",
            "housenumber": "35"
        }
    },
    "Магазин №335": {
        "code": 389,
        "active": 1,
        "address": {
            "country": "RU",
            "lat": 46.417118,
            "lon": 44.253463,
            "region": "Калмыкия респ",
            "city": "Троицкое с",
            "postalcode": "359180",
            "street": "В.Чкалова ул",
            "housenumber": "18"
        }
    },
    "Магазин №336": {
        "code": 390,
        "active": 1,
        "address": {
            "country": "RU",
            "lat": 48.22008,
            "lon": 46.727981,
            "region": "Астраханская обл",
            "city": "Верхний Баскунчак п",
            "postalcode": "416530",
            "street": "Джамбула ул",
            "housenumber": "16п058-060"
        }
    },
    "Магазин №337": {
        "code": 391,
        "active": 1,
        "address": {
            "country": "RU",
            "lat": 48.442494,
            "lon": 44.372813,
            "region": "Волгоградская обл",
            "city": "Червленое с",
            "postalcode": "404186",
            "street": "Ленина ул",
            "housenumber": "10А"
        }
    },
    "Магазин №338": {
        "code": 392,
        "active": 1,
        "address": {
            "country": "RU",
            "lat": 48.604004,
            "lon": 42.859296,
            "region": "Волгоградская обл",
            "city": "Суровикино",
            "postalcode": "404412",
            "street": "Ленина ул",
            "housenumber": "185А"
        }
    },